<?xml version="1.0" encoding="utf-8"?>
<gpx>
  <wpt lat="55.8072222222222" lon="37.9477777777778">
    <name>Пешеходный мост через р. Пехорку</name>
  </wpt>
  <wpt lat="55.8038888888889" lon="37.9477777777778">
    <name>Пляж</name>
  </wpt>
  <wpt lat="55.8013888888889" lon="37.9438888888889">
    <name>Заброшенный летний театр</name>
  </wpt>
  <wpt lat="55.8005555555556" lon="37.9475">
    <name>Плотина на р. Пехорке</name>
  </wpt>
  <wpt lat="55.8002777777778" lon="37.9447222222222">
    <name>Бывшая площадка аттракционов</name>
  </wpt>
  <wpt lat="55.8005555555556" lon="37.9461111111111">
    <name>Пляж</name>
  </wpt>
  <wpt lat="55.8011111111111" lon="37.9469444444444">
    <name>Вейк-парк «WakeFamilyPark»</name>
  </wpt>
  <wpt lat="55.7991666666667" lon="37.9397222222222">
    <name>Пешеходная площадь</name>
  </wpt>
  <wpt lat="55.7997222222222" lon="37.9402777777778">
    <name>Парковые аттракционы</name>
  </wpt>
  <wpt lat="55.8083333333333" lon="37.9797222222222">
    <name>Дом культуры «Балашиха»</name>
  </wpt>
  <wpt lat="55.7975" lon="37.9386111111111">
    <name>Торгово-офисный, гостиничный комплекс «Ист Гейт» (4*)</name>
  </wpt>
  <wpt lat="55.7966666666667" lon="37.9380555555556">
    <name>Площадь Славы</name>
  </wpt>
  <wpt lat="55.7969444444444" lon="37.9319444444444">
    <name>Бульвар</name>
  </wpt>
  <wpt lat="55.7958333333333" lon="37.925">
    <name>Балашихинский хлебный завод</name>
  </wpt>
  <wpt lat="55.7941666666667" lon="37.9263888888889">
    <name>Торгово-развлекательный центр «Светофор»</name>
  </wpt>
  <wpt lat="55.8" lon="37.9483333333333">
    <name>Территория старинного села Сусаново-Гущинка</name>
  </wpt>
  <wpt lat="55.8077777777778" lon="37.9433333333333">
    <name>Торговый центр «Жемчужина Балашихи»</name>
  </wpt>
</gpx>