<?xml version="1.0" encoding="utf-8"?>
<gpx>
  <wpt lat="55.7144444444444" lon="38.2091666666667">
    <name>Сквер с памятником ВОВ</name>
  </wpt>
  <wpt lat="55.7125" lon="38.2102777777778">
    <name>Колледж</name>
  </wpt>
  <wpt lat="55.7208333333333" lon="38.2127777777778">
    <name>Стадион Электроугли</name>
  </wpt>
  <wpt lat="55.72" lon="38.2186111111111">
    <name>универсам и рынок</name>
  </wpt>
  <wpt lat="55.7188888888889" lon="38.2305555555556">
    <name>Кинотеатр</name>
  </wpt>
  <wpt lat="55.7216666666667" lon="38.2236111111111">
    <name>Карьерный пруд</name>
  </wpt>
  <wpt lat="55.7133333333333" lon="38.215">
    <name>ДК</name>
  </wpt>
  <wpt lat="55.7125" lon="38.2166666666667">
    <name>Стадион Керамик</name>
  </wpt>
  <wpt lat="55.7105555555556" lon="38.2161111111111">
    <name>Каменский пруд</name>
  </wpt>
  <wpt lat="55.7166666666667" lon="38.2144444444444">
    <name>Торговые ряды</name>
  </wpt>
  <wpt lat="55.7175" lon="38.2175">
    <name>Старое кладбище</name>
  </wpt>
  <wpt lat="55.7155555555556" lon="38.2138888888889">
    <name>Новый ЗАГС</name>
  </wpt>
</gpx>